{
  "id": "0257ff9f-c73c-4855-b5b4-774755c4d146",
  "name": "Phantasialand",
  "entityType": "DESTINATION",
  "timezone": "Europe/Berlin",
  "children": [
    {
      "id": "640c4080-3fc9-4768-8789-3e84f1ab0414",
      "name": "Avoras",
      "entityType": "ATTRACTION",
      "slug": null,
      "parentId": "abb67808-61e3-49ef-996c-1b97ed64fac6",
      "externalId": "65",
      "location": {
        "longitude": 6.878687292337418,
        "latitude": 50.800657833442905
      }
    },
    {
      "id": "1653a0fa-e568-4cdb-bb76-8169d82fef20",
      "name": "Berliner Eislaufen",
      "entityType": "ATTRACTION",
      "slug": null,
      "parentId": "abb67808-61e3-49ef-996c-1b97ed64fac6",
      "externalId": "173",
      "location": {
        "longitude": 6.8812571838498116,
        "latitude": 50.7999485942302
      }
    },
    {
      "id": "484c351f-9326-4d6e-aa64-49dc9eeef1b1",
      "name": "Tiempo de Fuego",
      "entityType": "SHOW",
      "slug": null,
      "parentId": "abb67808-61e3-49ef-996c-1b97ed64fac6",
      "externalId": "176",
      "location": {
        "longitude": 6.881843917071819,
        "latitude": 50.79946311833906
      }
    },
    {
      "id": "23cd741d-40fe-4518-9f99-4faa6066d9a5",
      "name": "Mopti's Monkey Depot",
      "entityType": "ATTRACTION",
      "slug": null,
      "parentId": "abb67808-61e3-49ef-996c-1b97ed64fac6",
      "externalId": "232",
      "location": {
        "longitude": 6.8813054636120805,
        "latitude": 50.798691983235976
      }
    },
    {
      "id": "5dc55692-7e8c-44ed-ac38-78e6911f564c",
      "name": "Wakobato",
      "entityType": "ATTRACTION",
      "slug": null,
      "parentId": "abb67808-61e3-49ef-996c-1b97ed64fac6",
      "externalId": "75",
      "location": {
        "longitude": 6.876875460147858,
        "latitude": 50.80129099039771
      }
    },
    {
      "id": "9f92c298-8ac4-45b1-a87a-cb47d23b9ec4",
      "name": "Wözl‘s Wassertreter",
      "entityType": "ATTRACTION",
      "slug": null,
      "parentId": "abb67808-61e3-49ef-996c-1b97ed64fac6",
      "externalId": "69",
      "location": {
        "longitude": 6.87885157763958,
        "latitude": 50.800609943712445
      }
    },
    {
      "id": "733c6cb8-2e7c-4bda-a190-4053b96411dd",
      "name": "Wolke‘s Luftpost",
      "entityType": "ATTRACTION",
      "slug": null,
      "parentId": "abb67808-61e3-49ef-996c-1b97ed64fac6",
      "externalId": "209",
      "location": {
        "longitude": 6.879301518201828,
        "latitude": 50.80032090907608
      }
    },
    {
      "id": "96e0dbab-fcc5-44f9-9b47-daf9010b8e6e",
      "name": "BATTLE of the BEST",
      "entityType": "SHOW",
      "slug": null,
      "parentId": "abb67808-61e3-49ef-996c-1b97ed64fac6",
      "externalId": "30",
      "location": {
        "longitude": 6.881870403885841,
        "latitude": 50.798563565437064
      }
    },
    {
      "id": "4dee601d-3565-43f4-af9e-025a1882c93d",
      "name": "Dragon Schneck",
      "entityType": "SHOW",
      "slug": null,
      "parentId": "abb67808-61e3-49ef-996c-1b97ed64fac6",
      "externalId": "20",
      "location": {
        "longitude": 6.883903183043003,
        "latitude": 50.80018317200015
      }
    },
    {
      "id": "04500382-a7e8-4402-a140-829f8366c2c4",
      "name": "Pulse of Rookburgh",
      "entityType": "SHOW",
      "slug": null,
      "parentId": "abb67808-61e3-49ef-996c-1b97ed64fac6",
      "externalId": "220",
      "location": {
        "longitude": 6.879092305898666,
        "latitude": 50.79962226005329
      }
    },
    {
      "id": "c33362ee-e495-4f43-9fa5-f9235d5e64bf",
      "name": "Nobis",
      "entityType": "SHOW",
      "slug": null,
      "parentId": "abb67808-61e3-49ef-996c-1b97ed64fac6",
      "externalId": "90",
      "location": {
        "longitude": 6.880740858614445,
        "latitude": 50.79960594328462
      }
    },
    {
      "id": "f6c9071f-f523-4139-85d4-05624ec6a9ba",
      "name": "Kaiserplatz Illumination",
      "entityType": "SHOW",
      "slug": null,
      "parentId": "abb67808-61e3-49ef-996c-1b97ed64fac6",
      "externalId": "221",
      "location": {
        "longitude": 6.881106644868852,
        "latitude": 50.79998482989759
      }
    },
    {
      "id": "e9e58123-c683-4323-b086-5757de877526",
      "name": "Mystic Winter Castle",
      "entityType": "SHOW",
      "slug": null,
      "parentId": "abb67808-61e3-49ef-996c-1b97ed64fac6",
      "externalId": "223",
      "location": {
        "longitude": 6.883976608514786,
        "latitude": 50.8001422746056
      }
    },
    {
      "id": "abb67808-61e3-49ef-996c-1b97ed64fac6",
      "name": "Phantasialand",
      "entityType": "PARK",
      "slug": "phantasialandpark",
      "parentId": "0257ff9f-c73c-4855-b5b4-774755c4d146",
      "externalId": "phantasialand",
      "location": {
        "longitude": 6.8792554,
        "latitude": 50.8005075
      }
    },
    {
      "id": "20a6610d-30e6-4b21-ab00-3201604bbee7",
      "name": "Deep in Africa – Adventure Trail",
      "entityType": "ATTRACTION",
      "slug": null,
      "parentId": "abb67808-61e3-49ef-996c-1b97ed64fac6",
      "externalId": "218",
      "location": {
        "longitude": 6.880781091749668,
        "latitude": 50.798580518301996
      }
    },
    {
      "id": "2b63e85a-484f-4824-8433-6ec4ad230e3f",
      "name": "Miji African Dancers",
      "entityType": "SHOW",
      "slug": null,
      "parentId": "abb67808-61e3-49ef-996c-1b97ed64fac6",
      "externalId": "54",
      "location": {
        "longitude": 6.881182081997395,
        "latitude": 50.7986048880346
      }
    },
    {
      "id": "acc7c8de-7380-45f5-8084-03f7aac476a0",
      "name": "Kroka's Lodge",
      "entityType": "SHOW",
      "slug": null,
      "parentId": "abb67808-61e3-49ef-996c-1b97ed64fac6",
      "externalId": "219",
      "location": {
        "longitude": 6.879960671067237,
        "latitude": 50.798738179651565
      }
    },
    {
      "id": "6fdba07b-b8b7-4ef3-8428-db2680a12cb2",
      "name": "Dragon Drago",
      "entityType": "SHOW",
      "slug": null,
      "parentId": "abb67808-61e3-49ef-996c-1b97ed64fac6",
      "externalId": "95",
      "location": {
        "longitude": 6.8795171007514,
        "latitude": 50.79926858751814
      }
    },
    {
      "id": "9239eadb-3bd1-4669-a827-ef32fd00c1a1",
      "name": "Ice skate hire",
      "entityType": "ATTRACTION",
      "slug": null,
      "parentId": "abb67808-61e3-49ef-996c-1b97ed64fac6",
      "externalId": "229",
      "location": {
        "longitude": 6.8809571117162704,
        "latitude": 50.800205845669815
      }
    },
    {
      "id": "2ec823da-fa3b-483c-9695-250807d7bf80",
      "name": "Dragon Wang",
      "entityType": "SHOW",
      "slug": null,
      "parentId": "abb67808-61e3-49ef-996c-1b97ed64fac6",
      "externalId": "44",
      "location": {
        "longitude": 6.883858256042004,
        "latitude": 50.798747927513254
      }
    },
    {
      "id": "066d062c-f0ea-43ca-ba4c-3db831a3cb8b",
      "name": "Hack & Buddl",
      "entityType": "SHOW",
      "slug": null,
      "parentId": "abb67808-61e3-49ef-996c-1b97ed64fac6",
      "externalId": "78",
      "location": {
        "longitude": 6.878834143280983,
        "latitude": 50.80038214896869
      }
    },
    {
      "id": "5f1201f1-47f0-4a47-bb4f-0096d63d8018",
      "name": "Dragon Phenie",
      "entityType": "SHOW",
      "slug": null,
      "parentId": "abb67808-61e3-49ef-996c-1b97ed64fac6",
      "externalId": "81",
      "location": {
        "longitude": 6.87908124178648,
        "latitude": 50.80045673862568
      }
    },
    {
      "id": "396916b0-0d05-4c51-a82d-41382746c55e",
      "name": "Colorado Adventure",
      "entityType": "ATTRACTION",
      "slug": null,
      "parentId": "abb67808-61e3-49ef-996c-1b97ed64fac6",
      "externalId": "224",
      "location": {
        "longitude": 6.882070403885841,
        "latitude": 50.798563565437064
      }
    },
    {
      "id": "154fdf43-92be-4d90-9228-1b8668f84076",
      "name": "Rutmor‘s Taverne",
      "entityType": "RESTAURANT",
      "slug": null,
      "parentId": "abb67808-61e3-49ef-996c-1b97ed64fac6",
      "externalId": "21",
      "location": {
        "longitude": 6.8832021206617355,
        "latitude": 50.79986658708976
      }
    },
    {
      "id": "b73aedb9-d386-47c2-bd17-40f94ebe938d",
      "name": "Restaurant Bamboo",
      "entityType": "RESTAURANT",
      "slug": null,
      "parentId": "abb67808-61e3-49ef-996c-1b97ed64fac6",
      "externalId": "119",
      "location": {
        "longitude": 6.884463764727116,
        "latitude": 50.7986822353626
      }
    },
    {
      "id": "41f4635a-f1b0-4ca5-8dc2-9df9fe65b45d",
      "name": "Restaurant Uhrwerk",
      "entityType": "RESTAURANT",
      "slug": null,
      "parentId": "abb67808-61e3-49ef-996c-1b97ed64fac6",
      "externalId": "200",
      "location": {
        "longitude": 6.878882423043251,
        "latitude": 50.799927615673084
      }
    },
    {
      "id": "5174e77f-e1b8-44a1-9310-d3b6cb28f266",
      "name": "Bolles Flugschule",
      "entityType": "ATTRACTION",
      "slug": null,
      "parentId": "abb67808-61e3-49ef-996c-1b97ed64fac6",
      "externalId": "1",
      "location": {
        "longitude": 6.879732012748718,
        "latitude": 50.79900942373939
      }
    },
    {
      "id": "0160096b-a04c-4b90-83f9-468131ec72f1",
      "name": "Restaurant Bantu",
      "entityType": "RESTAURANT",
      "slug": null,
      "parentId": "abb67808-61e3-49ef-996c-1b97ed64fac6",
      "externalId": "117",
      "location": {
        "longitude": 6.881138160824776,
        "latitude": 50.79827261093367
      }
    },
    {
      "id": "d9ad9763-831c-4e02-99e3-2ec9936f7234",
      "name": "Restaurant Zambesi",
      "entityType": "RESTAURANT",
      "slug": null,
      "parentId": "abb67808-61e3-49ef-996c-1b97ed64fac6",
      "externalId": "118",
      "location": {
        "longitude": 6.881260201334953,
        "latitude": 50.79825502222026
      }
    },
    {
      "id": "97885d46-b39d-4697-8101-68307f7e6d4a",
      "name": "Eis-Café Annie Himmelreich",
      "entityType": "RESTAURANT",
      "slug": null,
      "parentId": "abb67808-61e3-49ef-996c-1b97ed64fac6",
      "externalId": "14",
      "location": {
        "longitude": 6.880488730967045,
        "latitude": 50.800129136574895
      }
    },
    {
      "id": "ad215bc1-92ca-4c93-9c7c-cd035f19bb14",
      "name": "Taron",
      "entityType": "ATTRACTION",
      "slug": null,
      "parentId": "abb67808-61e3-49ef-996c-1b97ed64fac6",
      "externalId": "16",
      "location": {
        "longitude": 6.882976815104485,
        "latitude": 50.7996591316914
      }
    },
    {
      "id": "3e64775d-1519-418d-92db-d460426c11b7",
      "name": "Raik",
      "entityType": "ATTRACTION",
      "slug": null,
      "parentId": "abb67808-61e3-49ef-996c-1b97ed64fac6",
      "externalId": "17",
      "location": {
        "longitude": 6.883360706269741,
        "latitude": 50.799699393791705
      }
    },
    {
      "id": "d1e5e18d-bf28-4891-b0ed-247fdb1ac37b",
      "name": "Mystery Castle",
      "entityType": "ATTRACTION",
      "slug": null,
      "parentId": "abb67808-61e3-49ef-996c-1b97ed64fac6",
      "externalId": "18",
      "location": {
        "longitude": 6.884276680648327,
        "latitude": 50.79937136261702
      }
    },
    {
      "id": "8254b058-4f59-4bd8-8549-67b4b7012486",
      "name": "River Quest",
      "entityType": "ATTRACTION",
      "slug": null,
      "parentId": "abb67808-61e3-49ef-996c-1b97ed64fac6",
      "externalId": "19",
      "location": {
        "longitude": 6.88390888273716,
        "latitude": 50.79926159456505
      }
    },
    {
      "id": "bbcb593e-5231-4f10-ada3-30ae6fd7ea49",
      "name": "Fantissima",
      "entityType": "SHOW",
      "slug": null,
      "parentId": "abb67808-61e3-49ef-996c-1b97ed64fac6",
      "externalId": "194",
      "location": {
        "longitude": 6.8771668151021,
        "latitude": 50.80029654023838
      }
    },
    {
      "id": "9075b479-c75f-4882-adf8-a441c7f0c15b",
      "name": "Bolles Riesenrad",
      "entityType": "ATTRACTION",
      "slug": null,
      "parentId": "abb67808-61e3-49ef-996c-1b97ed64fac6",
      "externalId": "2",
      "location": {
        "longitude": 6.8794044479727745,
        "latitude": 50.799215398666874
      }
    },
    {
      "id": "abadd16c-3068-4d8d-b0e7-16ae920e34bb",
      "name": "F.L.Y.",
      "entityType": "ATTRACTION",
      "slug": null,
      "parentId": "abb67808-61e3-49ef-996c-1b97ed64fac6",
      "externalId": "203",
      "location": {
        "longitude": 6.879270002245903,
        "latitude": 50.800009410802154
      }
    },
    {
      "id": "94737247-be0e-4f26-87e9-f39acb333de5",
      "name": "Talocan",
      "entityType": "ATTRACTION",
      "slug": null,
      "parentId": "abb67808-61e3-49ef-996c-1b97ed64fac6",
      "externalId": "26",
      "location": {
        "longitude": 6.881159953773022,
        "latitude": 50.799421372686474
      }
    },
    {
      "id": "3f5ecd23-9b02-4786-a3a9-26b576a22525",
      "name": "Tikal",
      "entityType": "ATTRACTION",
      "slug": null,
      "parentId": "abb67808-61e3-49ef-996c-1b97ed64fac6",
      "externalId": "27",
      "location": {
        "longitude": 6.882295198738575,
        "latitude": 50.798655110834765
      }
    },
    {
      "id": "1e88524d-c13c-4342-921b-8df472e049aa",
      "name": "Chiapas - DIE Wasserbahn",
      "entityType": "ATTRACTION",
      "slug": null,
      "parentId": "abb67808-61e3-49ef-996c-1b97ed64fac6",
      "externalId": "28",
      "location": {
        "longitude": 6.881634704768658,
        "latitude": 50.79931902151243
      }
    },
    {
      "id": "4a3c042e-9fc6-4d88-9cf9-dfec1f442c40",
      "name": "Rock on Ice",
      "entityType": "SHOW",
      "slug": null,
      "parentId": "abb67808-61e3-49ef-996c-1b97ed64fac6",
      "externalId": "29",
      "location": {
        "longitude": 6.881378218531609,
        "latitude": 50.799449132490054
      }
    },
    {
      "id": "fb820c24-8747-499e-ad1e-0d2f8b6e2e5b",
      "name": "Pferdekarussell",
      "entityType": "ATTRACTION",
      "slug": null,
      "parentId": "abb67808-61e3-49ef-996c-1b97ed64fac6",
      "externalId": "3",
      "location": {
        "longitude": 6.879715919494629,
        "latitude": 50.799138899854306
      }
    },
    {
      "id": "e802e820-75e1-406d-8626-f3ca825cf2ff",
      "name": "Restaurante Cocorico",
      "entityType": "RESTAURANT",
      "slug": null,
      "parentId": "abb67808-61e3-49ef-996c-1b97ed64fac6",
      "externalId": "33",
      "location": {
        "longitude": 6.881297416985035,
        "latitude": 50.79928045434524
      }
    },
    {
      "id": "5e27833c-66cd-4b32-b66e-a699b1df83b0",
      "name": "Maus au Chocolat",
      "entityType": "ATTRACTION",
      "slug": null,
      "parentId": "abb67808-61e3-49ef-996c-1b97ed64fac6",
      "externalId": "4",
      "location": {
        "longitude": 6.8803770840168,
        "latitude": 50.80007213443108
      }
    },
    {
      "id": "ce203679-4124-4e5c-aca7-046ec21965c4",
      "name": "Feng Ju Palace",
      "entityType": "ATTRACTION",
      "slug": null,
      "parentId": "abb67808-61e3-49ef-996c-1b97ed64fac6",
      "externalId": "41",
      "location": {
        "longitude": 6.88365675508976,
        "latitude": 50.799157547775835
      }
    },
    {
      "id": "f9949496-c025-48cc-8b3d-2f361ffe8124",
      "name": "Geister Rikscha",
      "entityType": "ATTRACTION",
      "slug": null,
      "parentId": "abb67808-61e3-49ef-996c-1b97ed64fac6",
      "externalId": "42",
      "location": {
        "longitude": 6.8832091614604,
        "latitude": 50.79882972470722
      }
    },
    {
      "id": "7c6e5d9f-31f0-4e14-be9b-58c4625d788b",
      "name": "Restaurant Mandschu",
      "entityType": "RESTAURANT",
      "slug": null,
      "parentId": "abb67808-61e3-49ef-996c-1b97ed64fac6",
      "externalId": "45",
      "location": {
        "longitude": 6.884031258523464,
        "latitude": 50.79903506470062
      }
    },
    {
      "id": "03dde9d9-8ed3-411d-99a1-da7d0a571f04",
      "name": "Wellenflug",
      "entityType": "ATTRACTION",
      "slug": null,
      "parentId": "abb67808-61e3-49ef-996c-1b97ed64fac6",
      "externalId": "5",
      "location": {
        "longitude": 6.880955770611763,
        "latitude": 50.79984921088132
      }
    },
    {
      "id": "b0a46890-be18-4291-a6cb-aa99587607ff",
      "name": "Black Mamba",
      "entityType": "ATTRACTION",
      "slug": null,
      "parentId": "abb67808-61e3-49ef-996c-1b97ed64fac6",
      "externalId": "52",
      "location": {
        "longitude": 6.880786791443825,
        "latitude": 50.79872037920326
      }
    },
    {
      "id": "92b86a07-4e9b-4941-8b70-2447d88bc73a",
      "name": "Winja‘s Fear",
      "entityType": "ATTRACTION",
      "slug": null,
      "parentId": "abb67808-61e3-49ef-996c-1b97ed64fac6",
      "externalId": "59",
      "location": {
        "longitude": 6.877428665757179,
        "latitude": 50.80018274819315
      }
    },
    {
      "id": "b4e969be-7534-4164-ae2e-48534d387bd3",
      "name": "Das verrückte Hotel Tartüff",
      "entityType": "ATTRACTION",
      "slug": null,
      "parentId": "abb67808-61e3-49ef-996c-1b97ed64fac6",
      "externalId": "6",
      "location": {
        "longitude": 6.880099140107632,
        "latitude": 50.799449980117394
      }
    },
    {
      "id": "48c120e2-1435-41d3-b942-15c805ceed90",
      "name": "Winja‘s Force",
      "entityType": "ATTRACTION",
      "slug": null,
      "parentId": "abb67808-61e3-49ef-996c-1b97ed64fac6",
      "externalId": "60",
      "location": {
        "longitude": 6.877433359622955,
        "latitude": 50.800164736391515
      }
    },
    {
      "id": "9aa46c76-a3bc-466e-8399-0beef3efb53e",
      "name": "Tittle Tattle Tree",
      "entityType": "ATTRACTION",
      "slug": null,
      "parentId": "abb67808-61e3-49ef-996c-1b97ed64fac6",
      "externalId": "61",
      "location": {
        "longitude": 6.878162920475006,
        "latitude": 50.80025288820165
      }
    },
    {
      "id": "33697282-aa04-44ba-8ec4-6ec883fb3e55",
      "name": "Würmling Express",
      "entityType": "ATTRACTION",
      "slug": null,
      "parentId": "abb67808-61e3-49ef-996c-1b97ed64fac6",
      "externalId": "62",
      "location": {
        "longitude": 6.878407336771488,
        "latitude": 50.800631345766185
      }
    },
    {
      "id": "87fce260-bfed-44b6-8a4f-6b5419ba0a69",
      "name": "Der lustige Papagei",
      "entityType": "ATTRACTION",
      "slug": null,
      "parentId": "abb67808-61e3-49ef-996c-1b97ed64fac6",
      "externalId": "63",
      "location": {
        "longitude": 6.8798040971159935,
        "latitude": 50.80043025083499
      }
    },
    {
      "id": "87ed5d8a-4fd9-43fd-a991-1d0ccb7ee243",
      "name": "Die fröhliche Bienchenjagd",
      "entityType": "ATTRACTION",
      "slug": null,
      "parentId": "abb67808-61e3-49ef-996c-1b97ed64fac6",
      "externalId": "64",
      "location": {
        "longitude": 6.878966242074966,
        "latitude": 50.800425165177444
      }
    },
    {
      "id": "7ff58418-8152-41e6-9d2c-fed27844d8fc",
      "name": "Wirtl‘s Taubenturm",
      "entityType": "ATTRACTION",
      "slug": null,
      "parentId": "abb67808-61e3-49ef-996c-1b97ed64fac6",
      "externalId": "68",
      "location": {
        "longitude": 6.878942102193832,
        "latitude": 50.800507383239676
      }
    },
    {
      "id": "af06bfe4-474c-40c2-9a8b-b4ea2228ab89",
      "name": "Bumper Klumpen",
      "entityType": "ATTRACTION",
      "slug": null,
      "parentId": "abb67808-61e3-49ef-996c-1b97ed64fac6",
      "externalId": "70",
      "location": {
        "longitude": 6.877873241901398,
        "latitude": 50.800142486509294
      }
    },
    {
      "id": "94ea8ec0-8f98-4d68-9e9b-b2f475fb9e2e",
      "name": "Wözl‘s Duck Washer",
      "entityType": "ATTRACTION",
      "slug": null,
      "parentId": "abb67808-61e3-49ef-996c-1b97ed64fac6",
      "externalId": "71",
      "location": {
        "longitude": 6.877966448664665,
        "latitude": 50.80013951985755
      }
    },
    {
      "id": "3bcf43a3-e227-47e3-9838-de4d3adc442a",
      "name": "Wupi‘s Wabi Wipper",
      "entityType": "ATTRACTION",
      "slug": null,
      "parentId": "abb67808-61e3-49ef-996c-1b97ed64fac6",
      "externalId": "72",
      "location": {
        "longitude": 6.8780626729130745,
        "latitude": 50.800140367472345
      }
    },
    {
      "id": "8de3145a-8e7d-4682-8370-62db04e15856",
      "name": "Crazy Bats",
      "entityType": "ATTRACTION",
      "slug": null,
      "parentId": "abb67808-61e3-49ef-996c-1b97ed64fac6",
      "externalId": "73",
      "location": {
        "longitude": 6.8781136348843575,
        "latitude": 50.80050717133764
      }
    },
    {
      "id": "13be55c5-bc14-4566-b471-daa24b082aad",
      "name": "NEW: Wavy Battle",
      "entityType": "ATTRACTION",
      "slug": null,
      "parentId": "abb67808-61e3-49ef-996c-1b97ed64fac6",
      "externalId": "142",
      "location": {
        "longitude": 6.879512742161751,
        "latitude": 50.80066397858174
      }
    },
    {
      "id": "8f8b0f61-6f1f-4d20-aa74-2d106b618056",
      "name": "NEW: Phenie's Shakes & Pancakes",
      "entityType": "RESTAURANT",
      "slug": null,
      "parentId": "abb67808-61e3-49ef-996c-1b97ed64fac6",
      "externalId": "238",
      "location": {
        "longitude": 6.879873163998128,
        "latitude": 50.800645543162794
      }
    },
    {
      "id": "0f49f65f-985d-4b8f-89f0-da057a331d1b",
      "name": "Water. Music. Light.",
      "entityType": "SHOW",
      "slug": null,
      "parentId": "abb67808-61e3-49ef-996c-1b97ed64fac6",
      "externalId": "187",
      "location": {
        "longitude": 6.880966834723949,
        "latitude": 50.79978945362735
      }
    },
    {
      "id": "75adabe1-20f0-4bb3-98d5-fc962f281df0",
      "name": "Magic Symphony",
      "entityType": "SHOW",
      "slug": null,
      "parentId": "abb67808-61e3-49ef-996c-1b97ed64fac6",
      "externalId": "222",
      "location": {
        "longitude": 6.8806446343660355,
        "latitude": 50.79971104860373
      }
    },
    {
      "id": "8bba7da8-226d-44ca-b545-162ca48bf39d",
      "name": "Casa de Quetzal",
      "entityType": "SHOW",
      "slug": null,
      "parentId": "abb67808-61e3-49ef-996c-1b97ed64fac6",
      "externalId": "237",
      "location": {
        "longitude": 6.8821922689676285,
        "latitude": 50.79961314809229
      }
    },
    {
      "id": "a468dc40-9a14-4db6-94c9-8a50f809227a",
      "name": "NEW: Winni Splash",
      "entityType": "ATTRACTION",
      "slug": null,
      "parentId": "abb67808-61e3-49ef-996c-1b97ed64fac6",
      "externalId": "76",
      "location": {
        "longitude": 6.879688762128353,
        "latitude": 50.80053556620194
      }
    },
    {
      "id": "a7005393-76e9-4ff8-8fde-621b662733c6",
      "name": "Die 3 Mausketiere",
      "entityType": "ATTRACTION",
      "slug": null,
      "parentId": "abb67808-61e3-49ef-996c-1b97ed64fac6",
      "externalId": "8",
      "location": {
        "longitude": 6.880561485886574,
        "latitude": 50.79979835364873
      }
    }
  ]
}